[{"name":"Wetpaint","category_code":"web","total_money_raised":"$39.8M","office":{"type":"Point","coordinates":[-122.333253,47.603122]},"latitude":47.603122,"longitude":-122.333253},{"name":"Wetpaint","category_code":"web","total_money_raised":"$39.8M","office":{"type":"Point","coordinates":[-73.9964312,40.7237306]},"latitude":40.7237306,"longitude":-73.9964312},{"name":"Newsvine","category_code":"web","total_money_raised":"$1.25M","office":{"type":"Point","coordinates":[-122.358484,47.618599]},"latitude":47.618599,"longitude":-122.358484},{"name":"iLike","category_code":"games_video","total_money_raised":"$16.5M","office":{"type":"Point","coordinates":[-122.323408,47.615313]},"latitude":47.615313,"longitude":-122.323408},{"name":"PayScale","category_code":"software","total_money_raised":"$31.1M","office":{"type":"Point","coordinates":[-122.3276962,47.5999337]},"latitude":47.5999337,"longitude":-122.3276962},{"name":"BuddyTV","category_code":"games_video","total_money_raised":"$10.6M","office":{"type":"Point","coordinates":[-122.356756,47.61968]},"latitude":47.61968,"longitude":-122.356756},{"name":"Shock Treatment Management","category_code":"web","total_money_raised":"$4M","office":{"type":"Point","coordinates":[-122.339859,47.610332]},"latitude":47.610332,"longitude":-122.339859},{"name":"GoChongo","category_code":"web","total_money_raised":"$175k","office":{"type":"Point","coordinates":[-95.712891,37.09024]},"latitude":37.09024,"longitude":-95.712891},{"name":"Ripl","category_code":"network_hosting","total_money_raised":"$6.5M","office":{"type":"Point","coordinates":[-122.347533,47.620716]},"latitude":47.620716,"longitude":-122.347533},{"name":"EyeJot","category_code":"web","total_money_raised":"$1.15M","office":{"type":"Point","coordinates":[-122.3276962,47.5999337]},"latitude":47.5999337,"longitude":-122.3276962},{"name":"FlowPlay","category_code":"games_video","total_money_raised":"$3.97M","office":{"type":"Point","coordinates":[-122.335943,47.6015315]},"latitude":47.6015315,"longitude":-122.335943},{"name":"DocuSign","category_code":"software","total_money_raised":"$116M","office":{"type":"Point","coordinates":[-122.335668,47.603015]},"latitude":47.603015,"longitude":-122.335668},{"name":"The Climate Corporation","category_code":"cleantech","total_money_raised":"$109M","office":{"type":"Point","coordinates":[-122.394354,37.782809]},"latitude":37.782809,"longitude":-122.394354},{"name":"The Climate Corporation","category_code":"cleantech","total_money_raised":"$109M","office":{"type":"Point","coordinates":[-122.3331466,47.5984767]},"latitude":47.5984767,"longitude":-122.3331466},{"name":"GridNetworks","category_code":"network_hosting","total_money_raised":"$30M","office":{"type":"Point","coordinates":[-122.336132,47.602873]},"latitude":47.602873,"longitude":-122.336132},{"name":"Faves","category_code":"web","total_money_raised":"$1.5M","office":{"type":"Point","coordinates":[-122.334983,47.603327]},"latitude":47.603327,"longitude":-122.334983},{"name":"RealSelf","category_code":"web","total_money_raised":"$1.95M","office":{"type":"Point","coordinates":[-122.347533,47.620716]},"latitude":47.620716,"longitude":-122.347533},{"name":"RescueTime","category_code":"web","total_money_raised":"$920k","office":{"type":"Point","coordinates":[-122.335333,47.603577]},"latitude":47.603577,"longitude":-122.335333},{"name":"Zoji","category_code":"web","total_money_raised":"$1.5M","office":{"type":"Point","coordinates":[-122.347533,47.620716]},"latitude":47.620716,"longitude":-122.347533},{"name":"Jott","category_code":"web","total_money_raised":"$5.4M","office":{"type":"Point","coordinates":[-122.327807,47.6139472]},"latitude":47.6139472,"longitude":-122.327807},{"name":"Delve Networks","category_code":"games_video","total_money_raised":"$9.65M","office":{"type":"Point","coordinates":[-122.334117,47.600818]},"latitude":47.600818,"longitude":-122.334117},{"name":"TalentSpring","category_code":"web","total_money_raised":"$2.7M","office":{"type":"Point","coordinates":[-122.120938,47.680496]},"latitude":47.680496,"longitude":-122.120938},{"name":"Escapia","category_code":"software","total_money_raised":"$3.6M","office":{"type":"Point","coordinates":[-122.3413,47.613896]},"latitude":47.613896,"longitude":-122.3413},{"name":"Shelfari","category_code":"web","total_money_raised":"$1M","office":{"type":"Point","coordinates":[-122.347533,47.620716]},"latitude":47.620716,"longitude":-122.347533},{"name":"PI Corporation","category_code":"network_hosting","total_money_raised":"$9.4M","office":{"type":"Point","coordinates":[-122.332614,47.602416]},"latitude":47.602416,"longitude":-122.332614},{"name":"CarDomain Network","category_code":"web","total_money_raised":"$3M","office":{"type":"Point","coordinates":[-122.340435,47.634741]},"latitude":47.634741,"longitude":-122.340435},{"name":"TeachStreet","category_code":"web","total_money_raised":"$3.45M","office":{"type":"Point","coordinates":[-122.3370801,47.6171788]},"latitude":47.6171788,"longitude":-122.3370801},{"name":"Trusera","category_code":"web","total_money_raised":"$2M","office":{"type":"Point","coordinates":[-122.305994,47.617122]},"latitude":47.617122,"longitude":-122.305994},{"name":"thePlatform","category_code":"web","total_money_raised":"$8M","office":{"type":"Point","coordinates":[-122.356027,47.617838]},"latitude":47.617838,"longitude":-122.356027},{"name":"Local Marketers","category_code":"web","total_money_raised":"$4.1M","office":{"type":"Point","coordinates":[-122.3329036,47.5989681]},"latitude":47.5989681,"longitude":-122.3329036},{"name":"Varolii","category_code":"software","total_money_raised":"$11M","office":{"type":"Point","coordinates":[-122.334448,47.604242]},"latitude":47.604242,"longitude":-122.334448},{"name":"Swype","category_code":"software","total_money_raised":"$13.9M","office":{"type":"Point","coordinates":[-122.3497956,47.6495905]},"latitude":47.6495905,"longitude":-122.3497956},{"name":"Varolii","category_code":"software","total_money_raised":"$11M","office":{"type":"Point","coordinates":[-122.334448,47.604242]},"latitude":47.604242,"longitude":-122.334448},{"name":"Swype","category_code":"software","total_money_raised":"$13.9M","office":{"type":"Point","coordinates":[-122.3497956,47.6495905]},"latitude":47.6495905,"longitude":-122.3497956},{"name":"Pathable","category_code":"network_hosting","total_money_raised":"$314k","office":{"type":"Point","coordinates":[-122.324861,47.657435]},"latitude":47.657435,"longitude":-122.324861},{"name":"Groupon","category_code":"web","total_money_raised":"$1.15B","office":{"type":"Point","coordinates":[-87.643622,41.8965162]},"latitude":41.8965162,"longitude":-87.643622},{"name":"Tableau Software","category_code":"software","total_money_raised":"$15M","office":{"type":"Point","coordinates":[-122.3545086,47.6504518]},"latitude":47.6504518,"longitude":-122.3545086},{"name":"IMedExchange","category_code":"web","total_money_raised":"$2.62M","office":{"type":"Point","coordinates":[-122.3371174,47.6136485]},"latitude":47.6136485,"longitude":-122.3371174},{"name":"SynapticMash","category_code":"software","total_money_raised":"$5.89M","office":{"type":"Point","coordinates":[-122.3379255,47.6098932]},"latitude":47.6098932,"longitude":-122.3379255},{"name":"OnRequest Images","category_code":"software","total_money_raised":"$27M","office":{"type":"Point","coordinates":[-122.3403478,47.6075374]},"latitude":47.6075374,"longitude":-122.3403478},{"name":"Medio","category_code":"software","total_money_raised":"$30M","office":{"type":"Point","coordinates":[-122.331308,47.611827]},"latitude":47.611827,"longitude":-122.331308},{"name":"Optify","category_code":"software","total_money_raised":"$10.8M","office":{"type":"Point","coordinates":[-122.333359,47.603364]},"latitude":47.603364,"longitude":-122.333359},{"name":"Z2Live","category_code":"games_video","total_money_raised":"$6.5M","office":{"type":"Point","coordinates":[-122.3399782,47.6103008]},"latitude":47.6103008,"longitude":-122.3399782},{"name":"Adapx","category_code":"software","total_money_raised":"$30M","office":{"type":"Point","coordinates":[-122.3339579,47.603873]},"latitude":47.603873,"longitude":-122.3339579},{"name":"Symform","category_code":"network_hosting","total_money_raised":"$19.5M","office":{"type":"Point","coordinates":[-122.3477735,47.6452085]},"latitude":47.6452085,"longitude":-122.3477735},{"name":"Gist","category_code":"web","total_money_raised":"$10.8M","office":{"type":"Point","coordinates":[-122.334117,47.6008183]},"latitude":47.6008183,"longitude":-122.334117},{"name":"NanoString Technologies","category_code":"biotech","total_money_raised":"$106M","office":{"type":"Point","coordinates":[-122.3343544,47.6234781]},"latitude":47.6234781,"longitude":-122.3343544},{"name":"Optimum Energy","category_code":"cleantech","total_money_raised":"$21.2M","office":{"type":"Point","coordinates":[-122.334614,47.598657]},"latitude":47.598657,"longitude":-122.334614},{"name":"Optimum Energy","category_code":"cleantech","total_money_raised":"$21.2M","office":{"type":"Point","coordinates":[-117.098216,32.8386414]},"latitude":32.8386414,"longitude":-117.098216},{"name":"Optimum Energy","category_code":"cleantech","total_money_raised":"$21.2M","office":{"type":"Point","coordinates":[-73.9875922,40.7518919]},"latitude":40.7518919,"longitude":-73.9875922},{"name":"EnerG2","category_code":"cleantech","total_money_raised":"$12M","office":{"type":"Point","coordinates":[-122.3328401,47.6042663]},"latitude":47.6042663,"longitude":-122.3328401},{"name":"Principle Power","category_code":"cleantech","total_money_raised":"$2.3M","office":{"type":"Point","coordinates":[-122.3343564,47.5992095]},"latitude":47.5992095,"longitude":-122.3343564},{"name":"PopCap Games","category_code":"games_video","total_money_raised":"$22.5M","office":{"type":"Point","coordinates":[-122.3451897,47.6161693]},"latitude":47.6161693,"longitude":-122.3451897},{"name":"AltaRock Energy","category_code":"cleantech","total_money_raised":"$26.3M","office":{"type":"Point","coordinates":[-122.3373282,47.6859295]},"latitude":47.6859295,"longitude":-122.3373282},{"name":"AltaRock Energy","category_code":"cleantech","total_money_raised":"$26.3M","office":{"type":"Point","coordinates":[-122.347276,47.620973]},"latitude":47.620973,"longitude":-122.347276},{"name":"Vigilos","category_code":"software","total_money_raised":"$7.4M","office":{"type":"Point","coordinates":[-122.3430581,47.6113314]},"latitude":47.6113314,"longitude":-122.3430581}]